{
"type": "FeatureCollection",
"features": [
{ "type": "Feature", "properties": { "FID": null, "OBJECTID": null, "Div_Num": null, "Division": "Premier League", "Team": "Arsenal", "Location": "London (Holloway)", "Stadium": "Emirates Stadium", "Year_Open": 2006.0, "Capacity": 59867.0, "lon": -0.108611, "lat": 51.555 }, "geometry": { "type": "Point", "coordinates": [ -0.108611, 51.555 ] } },
{ "type": "Feature", "properties": { "FID": null, "OBJECTID": null, "Div_Num": null, "Division": "Premier League", "Team": "Bournemouth", "Location": "Bournemouth", "Stadium": "Vitality Stadium", "Year_Open": 1910.0, "Capacity": 11360.0, "lon": -1.838333, "lat": 50.735278 }, "geometry": { "type": "Point", "coordinates": [ -1.838333, 50.735278 ] } },
{ "type": "Feature", "properties": { "FID": null, "OBJECTID": null, "Div_Num": null, "Division": "Premier League", "Team": "Brighton & Hove Albion", "Location": "Brighton", "Stadium": "Amex Stadium", "Year_Open": 2011.0, "Capacity": 30750.0, "lon": -0.083278, "lat": 50.861822 }, "geometry": { "type": "Point", "coordinates": [ -0.083278, 50.861822 ] } },
{ "type": "Feature", "properties": { "FID": null, "OBJECTID": null, "Div_Num": null, "Division": "Premier League", "Team": "Burnley", "Location": "Burnley", "Stadium": "Turf Moor", "Year_Open": 1883.0, "Capacity": 22546.0, "lon": -2.230278, "lat": 53.789167 }, "geometry": { "type": "Point", "coordinates": [ -2.230278, 53.789167 ] } },
{ "type": "Feature", "properties": { "FID": null, "OBJECTID": null, "Div_Num": null, "Division": "Premier League", "Team": "Cardiff City", "Location": "Cardiff", "Stadium": "Cardiff City Stadium", "Year_Open": 2009.0, "Capacity": 33280.0, "lon": -3.203056, "lat": 51.472778 }, "geometry": { "type": "Point", "coordinates": [ -3.203056, 51.472778 ] } },
{ "type": "Feature", "properties": { "FID": null, "OBJECTID": null, "Div_Num": null, "Division": "Premier League", "Team": "Chelsea", "Location": "London (Fulham)", "Stadium": "Stamford Bridge", "Year_Open": 1877.0, "Capacity": 41631.0, "lon": -0.191111, "lat": 51.481667 }, "geometry": { "type": "Point", "coordinates": [ -0.191111, 51.481667 ] } },
{ "type": "Feature", "properties": { "FID": null, "OBJECTID": null, "Div_Num": null, "Division": "Premier League", "Team": "Crystal Palace", "Location": "London (Selhurst)", "Stadium": "Selhurst Park", "Year_Open": 1924.0, "Capacity": 25456.0, "lon": -0.085556, "lat": 51.398333 }, "geometry": { "type": "Point", "coordinates": [ -0.085556, 51.398333 ] } },
{ "type": "Feature", "properties": { "FID": null, "OBJECTID": null, "Div_Num": null, "Division": "Premier League", "Team": "Everton", "Location": "Liverpool", "Stadium": "Goodison Park", "Year_Open": 1892.0, "Capacity": 39572.0, "lon": -2.966389, "lat": 53.438889 }, "geometry": { "type": "Point", "coordinates": [ -2.966389, 53.438889 ] } },
{ "type": "Feature", "properties": { "FID": null, "OBJECTID": null, "Div_Num": null, "Division": "Premier League", "Team": "Fulham", "Location": "London (Fulham)", "Stadium": "Craven Cottage", "Year_Open": 1896.0, "Capacity": 25700.0, "lon": -0.221667, "lat": 51.475 }, "geometry": { "type": "Point", "coordinates": [ -0.221667, 51.475 ] } },
{ "type": "Feature", "properties": { "FID": null, "OBJECTID": null, "Div_Num": null, "Division": "Premier League", "Team": "Huddersfield Town", "Location": "Huddersfield", "Stadium": "John Smith's Stadium", "Year_Open": 1994.0, "Capacity": 24500.0, "lon": -1.768333, "lat": 53.654167 }, "geometry": { "type": "Point", "coordinates": [ -1.768333, 53.654167 ] } },
{ "type": "Feature", "properties": { "FID": null, "OBJECTID": null, "Div_Num": null, "Division": "Premier League", "Team": "Leicester City", "Location": "Leicester", "Stadium": "King Power Stadium", "Year_Open": 2002.0, "Capacity": 32312.0, "lon": -1.142222, "lat": 52.620278 }, "geometry": { "type": "Point", "coordinates": [ -1.142222, 52.620278 ] } },
{ "type": "Feature", "properties": { "FID": null, "OBJECTID": null, "Div_Num": null, "Division": "Premier League", "Team": "Shit Team", "Location": "Liverpool", "Stadium": "Shit Stadium", "Year_Open": 1884.0, "Capacity": 54074.0, "lon": -2.960847, "lat": 53.430828 }, "geometry": { "type": "Point", "coordinates": [ -2.960847, 53.430828 ] } },
{ "type": "Feature", "properties": { "FID": null, "OBJECTID": null, "Div_Num": null, "Division": "Premier League", "Team": "Cheating Bastards", "Location": "Manchester, Greater Manchester", "Stadium": "Empty Seats", "Year_Open": 2002.0, "Capacity": 55097.0, "lon": -2.200278, "lat": 53.483056 }, "geometry": { "type": "Point", "coordinates": [ -2.200278, 53.483056 ] } },
{ "type": "Feature", "properties": { "FID": null, "OBJECTID": null, "Div_Num": null, "Division": "Premier League", "Team": "Manchester United", "Location": "Trafford, Greater Manchester", "Stadium": "Old Trafford", "Year_Open": 1910.0, "Capacity": 74994.0, "lon": -2.291389, "lat": 53.463056 }, "geometry": { "type": "Point", "coordinates": [ -2.291389, 53.463056 ] } },
{ "type": "Feature", "properties": { "FID": null, "OBJECTID": null, "Div_Num": null, "Division": "Premier League", "Team": "Newcastle United", "Location": "Newcastle upon Tyne", "Stadium": "St James' Park", "Year_Open": 1892.0, "Capacity": 52405.0, "lon": -1.621667, "lat": 54.975556 }, "geometry": { "type": "Point", "coordinates": [ -1.621667, 54.975556 ] } },
{ "type": "Feature", "properties": { "FID": null, "OBJECTID": null, "Div_Num": null, "Division": "Premier League", "Team": "Southampton", "Location": "Southampton", "Stadium": "St Mary's Stadium", "Year_Open": 2001.0, "Capacity": 32505.0, "lon": -1.391111, "lat": 50.905833 }, "geometry": { "type": "Point", "coordinates": [ -1.391111, 50.905833 ] } },
{ "type": "Feature", "properties": { "FID": null, "OBJECTID": null, "Div_Num": null, "Division": "Premier League", "Team": "Tottenham Hotspur", "Location": "London (Tottenham)", "Stadium": "Tottenham Hotspur Stadium", "Year_Open": 2018.0, "Capacity": 62062.0, "lon": -0.066417, "lat": 51.60475 }, "geometry": { "type": "Point", "coordinates": [ -0.066417, 51.60475 ] } },
{ "type": "Feature", "properties": { "FID": null, "OBJECTID": null, "Div_Num": null, "Division": "Premier League", "Team": "Watford", "Location": "Watford", "Stadium": "Vicarage Road", "Year_Open": 1922.0, "Capacity": 21577.0, "lon": -0.401486, "lat": 51.649836 }, "geometry": { "type": "Point", "coordinates": [ -0.401486, 51.649836 ] } },
{ "type": "Feature", "properties": { "FID": null, "OBJECTID": null, "Div_Num": null, "Division": "Premier League", "Team": "West Ham United", "Location": "London (Stratford)", "Stadium": "London Stadium", "Year_Open": 2012.0, "Capacity": 60000.0, "lon": -0.016389, "lat": 51.538611 }, "geometry": { "type": "Point", "coordinates": [ -0.016389, 51.538611 ] } },
{ "type": "Feature", "properties": { "FID": null, "OBJECTID": null, "Div_Num": null, "Division": "Premier League", "Team": "Wolverhampton Wanderers", "Location": "Wolverhampton", "Stadium": "Molineux", "Year_Open": 1889.0, "Capacity": 31700.0, "lon": -2.130278, "lat": 52.590278 }, "geometry": { "type": "Point", "coordinates": [ -2.130278, 52.590278 ] } },
{ "type": "Feature", "properties": { "FID": null, "OBJECTID": null, "Div_Num": null, "Division": "Championship", "Team": "Aston Villa", "Location": "Birmingham (Aston)", "Stadium": "Villa Park", "Year_Open": 1897.0, "Capacity": 42790.0, "lon": -1.884722, "lat": 52.509167 }, "geometry": { "type": "Point", "coordinates": [ -1.884722, 52.509167 ] } },
{ "type": "Feature", "properties": { "FID": null, "OBJECTID": null, "Div_Num": null, "Division": "Championship", "Team": "Birmingham City", "Location": "Birmingham (Bordesley)", "Stadium": "St Andrew's", "Year_Open": 1906.0, "Capacity": 30015.0, "lon": -1.868189, "lat": 52.475703 }, "geometry": { "type": "Point", "coordinates": [ -1.868189, 52.475703 ] } },
{ "type": "Feature", "properties": { "FID": null, "OBJECTID": null, "Div_Num": null, "Division": "Championship", "Team": "Blackburn Rovers", "Location": "Blackburn", "Stadium": "Ewood Park", "Year_Open": 1882.0, "Capacity": 31367.0, "lon": -2.489167, "lat": 53.728611 }, "geometry": { "type": "Point", "coordinates": [ -2.489167, 53.728611 ] } },
{ "type": "Feature", "properties": { "FID": null, "OBJECTID": null, "Div_Num": null, "Division": "Championship", "Team": "Bolton Wanderers", "Location": "Bolton", "Stadium": "Macron Stadium", "Year_Open": 1997.0, "Capacity": 28723.0, "lon": -2.535556, "lat": 53.580556 }, "geometry": { "type": "Point", "coordinates": [ -2.535556, 53.580556 ] } },
{ "type": "Feature", "properties": { "FID": null, "OBJECTID": null, "Div_Num": null, "Division": "Championship", "Team": "Brentford", "Location": "London (Brentford)", "Stadium": "Griffin Park", "Year_Open": 1904.0, "Capacity": 12300.0, "lon": -0.302639, "lat": 51.488183 }, "geometry": { "type": "Point", "coordinates": [ -0.302639, 51.488183 ] } },
{ "type": "Feature", "properties": { "FID": null, "OBJECTID": null, "Div_Num": null, "Division": "Championship", "Team": "Bristol City", "Location": "Bristol", "Stadium": "Ashton Gate", "Year_Open": 1887.0, "Capacity": 27000.0, "lon": -2.620278, "lat": 51.44 }, "geometry": { "type": "Point", "coordinates": [ -2.620278, 51.44 ] } },
{ "type": "Feature", "properties": { "FID": null, "OBJECTID": null, "Div_Num": null, "Division": "Championship", "Team": "Derby County", "Location": "Derby", "Stadium": "Pride Park Stadium", "Year_Open": 1997.0, "Capacity": 33600.0, "lon": -1.447222, "lat": 52.915 }, "geometry": { "type": "Point", "coordinates": [ -1.447222, 52.915 ] } },
{ "type": "Feature", "properties": { "FID": null, "OBJECTID": null, "Div_Num": null, "Division": "Championship", "Team": "Hull City", "Location": "Kingston upon Hull", "Stadium": "KCOM Stadium", "Year_Open": 2002.0, "Capacity": 25400.0, "lon": -0.367778, "lat": 53.746111 }, "geometry": { "type": "Point", "coordinates": [ -0.367778, 53.746111 ] } },
{ "type": "Feature", "properties": { "FID": null, "OBJECTID": null, "Div_Num": null, "Division": "Championship", "Team": "Ipswich Town", "Location": "Ipswich", "Stadium": "Portman Road", "Year_Open": 1884.0, "Capacity": 30300.0, "lon": 1.144831, "lat": 52.055061 }, "geometry": { "type": "Point", "coordinates": [ 1.144831, 52.055061 ] } },
{ "type": "Feature", "properties": { "FID": null, "OBJECTID": null, "Div_Num": null, "Division": "Championship", "Team": "Leeds United", "Location": "Leeds", "Stadium": "Elland Road", "Year_Open": 1897.0, "Capacity": 37890.0, "lon": -1.572222, "lat": 53.777778 }, "geometry": { "type": "Point", "coordinates": [ -1.572222, 53.777778 ] } },
{ "type": "Feature", "properties": { "FID": null, "OBJECTID": null, "Div_Num": null, "Division": "Championship", "Team": "Middlesbrough", "Location": "Middlesbrough", "Stadium": "Riverside Stadium", "Year_Open": 1995.0, "Capacity": 34742.0, "lon": -1.216944, "lat": 54.578333 }, "geometry": { "type": "Point", "coordinates": [ -1.216944, 54.578333 ] } },
{ "type": "Feature", "properties": { "FID": null, "OBJECTID": null, "Div_Num": null, "Division": "Championship", "Team": "Millwall", "Location": "London (South Bermondsey)", "Stadium": "The Den", "Year_Open": 1993.0, "Capacity": 20146.0, "lon": -0.05095, "lat": 51.485953 }, "geometry": { "type": "Point", "coordinates": [ -0.05095, 51.485953 ] } },
{ "type": "Feature", "properties": { "FID": null, "OBJECTID": null, "Div_Num": null, "Division": "Championship", "Team": "Norwich City", "Location": "Norwich", "Stadium": "Carrow Road", "Year_Open": 1935.0, "Capacity": 27244.0, "lon": 1.308653, "lat": 52.622128 }, "geometry": { "type": "Point", "coordinates": [ 1.308653, 52.622128 ] } },
{ "type": "Feature", "properties": { "FID": null, "OBJECTID": null, "Div_Num": null, "Division": "Championship", "Team": "Nottingham Forest", "Location": "Nottingham", "Stadium": "City Ground", "Year_Open": 1898.0, "Capacity": 30445.0, "lon": -1.132778, "lat": 52.94 }, "geometry": { "type": "Point", "coordinates": [ -1.132778, 52.94 ] } },
{ "type": "Feature", "properties": { "FID": null, "OBJECTID": null, "Div_Num": null, "Division": "Championship", "Team": "Preston North End", "Location": "Preston", "Stadium": "Deepdale", "Year_Open": 1878.0, "Capacity": 23408.0, "lon": -2.688056, "lat": 53.772222 }, "geometry": { "type": "Point", "coordinates": [ -2.688056, 53.772222 ] } },
{ "type": "Feature", "properties": { "FID": null, "OBJECTID": null, "Div_Num": null, "Division": "Championship", "Team": "Queens Park Rangers", "Location": "London (White City)", "Stadium": "Loftus Road", "Year_Open": 1904.0, "Capacity": 18439.0, "lon": -0.232222, "lat": 51.509167 }, "geometry": { "type": "Point", "coordinates": [ -0.232222, 51.509167 ] } },
{ "type": "Feature", "properties": { "FID": null, "OBJECTID": null, "Div_Num": null, "Division": "Championship", "Team": "Reading", "Location": "Reading", "Stadium": "Madejski Stadium", "Year_Open": 1998.0, "Capacity": 24161.0, "lon": -0.982778, "lat": 51.422222 }, "geometry": { "type": "Point", "coordinates": [ -0.982778, 51.422222 ] } },
{ "type": "Feature", "properties": { "FID": null, "OBJECTID": null, "Div_Num": null, "Division": "Championship", "Team": "Rotherham United", "Location": "Rotherham", "Stadium": "New York Stadium", "Year_Open": 2012.0, "Capacity": 12021.0, "lon": -1.362, "lat": 53.4279 }, "geometry": { "type": "Point", "coordinates": [ -1.362, 53.4279 ] } },
{ "type": "Feature", "properties": { "FID": null, "OBJECTID": null, "Div_Num": null, "Division": "Championship", "Team": "Sheffield United", "Location": "Sheffield", "Stadium": "Bramall Lane", "Year_Open": 1855.0, "Capacity": 32702.0, "lon": -1.470833, "lat": 53.370278 }, "geometry": { "type": "Point", "coordinates": [ -1.470833, 53.370278 ] } },
{ "type": "Feature", "properties": { "FID": null, "OBJECTID": null, "Div_Num": null, "Division": "Championship", "Team": "Sheffield Wednesday", "Location": "Sheffield", "Stadium": "Hillsborough Stadium", "Year_Open": 1899.0, "Capacity": 39752.0, "lon": -1.500556, "lat": 53.411389 }, "geometry": { "type": "Point", "coordinates": [ -1.500556, 53.411389 ] } },
{ "type": "Feature", "properties": { "FID": null, "OBJECTID": null, "Div_Num": null, "Division": "Championship", "Team": "Stoke City", "Location": "Stoke-on-Trent", "Stadium": "bet365 Stadium", "Year_Open": 1997.0, "Capacity": 30089.0, "lon": -2.175556, "lat": 52.988333 }, "geometry": { "type": "Point", "coordinates": [ -2.175556, 52.988333 ] } },
{ "type": "Feature", "properties": { "FID": null, "OBJECTID": null, "Div_Num": null, "Division": "Championship", "Team": "Swansea City", "Location": "Swansea", "Stadium": "Liberty Stadium", "Year_Open": 2005.0, "Capacity": 21088.0, "lon": -3.9351, "lat": 51.6422 }, "geometry": { "type": "Point", "coordinates": [ -3.9351, 51.6422 ] } },
{ "type": "Feature", "properties": { "FID": null, "OBJECTID": null, "Div_Num": null, "Division": "Championship", "Team": "West Bromwich Albion", "Location": "West Bromwich", "Stadium": "The Hawthorns", "Year_Open": 1900.0, "Capacity": 26850.0, "lon": -1.963889, "lat": 52.509167 }, "geometry": { "type": "Point", "coordinates": [ -1.963889, 52.509167 ] } },
{ "type": "Feature", "properties": { "FID": null, "OBJECTID": null, "Div_Num": null, "Division": "Championship", "Team": "Wigan Athletic", "Location": "Wigan", "Stadium": "DW Stadium", "Year_Open": 1999.0, "Capacity": 25133.0, "lon": -2.653889, "lat": 53.547778 }, "geometry": { "type": "Point", "coordinates": [ -2.653889, 53.547778 ] } },
{ "type": "Feature", "properties": { "FID": null, "OBJECTID": null, "Div_Num": null, "Division": "League One", "Team": "Accrington Stanley", "Location": "Accrington", "Stadium": "Crown Ground", "Year_Open": 1968.0, "Capacity": 5057.0, "lon": -2.370911, "lat": 53.765356 }, "geometry": { "type": "Point", "coordinates": [ -2.370911, 53.765356 ] } },
{ "type": "Feature", "properties": { "FID": null, "OBJECTID": null, "Div_Num": null, "Division": "League One", "Team": "AFC Wimbledon", "Location": "London (Kingston upon Thames)", "Stadium": "Kingsmeadow", "Year_Open": 1989.0, "Capacity": 4850.0, "lon": -0.281944, "lat": 51.405083 }, "geometry": { "type": "Point", "coordinates": [ -0.281944, 51.405083 ] } },
{ "type": "Feature", "properties": { "FID": null, "OBJECTID": null, "Div_Num": null, "Division": "League One", "Team": "Barnsley", "Location": "Barnsley", "Stadium": "Oakwell", "Year_Open": 1888.0, "Capacity": 23009.0, "lon": -1.4675, "lat": 53.552222 }, "geometry": { "type": "Point", "coordinates": [ -1.4675, 53.552222 ] } },
{ "type": "Feature", "properties": { "FID": null, "OBJECTID": null, "Div_Num": null, "Division": "League One", "Team": "Blackpool", "Location": "Blackpool", "Stadium": "Bloomfield Road", "Year_Open": 1899.0, "Capacity": 17338.0, "lon": -3.048056, "lat": 53.804722 }, "geometry": { "type": "Point", "coordinates": [ -3.048056, 53.804722 ] } },
{ "type": "Feature", "properties": { "FID": null, "OBJECTID": null, "Div_Num": null, "Division": "League One", "Team": "Bradford City", "Location": "Bradford", "Stadium": "Valley Parade", "Year_Open": 1886.0, "Capacity": 25136.0, "lon": -1.758889, "lat": 53.804167 }, "geometry": { "type": "Point", "coordinates": [ -1.758889, 53.804167 ] } },
{ "type": "Feature", "properties": { "FID": null, "OBJECTID": null, "Div_Num": null, "Division": "League One", "Team": "Bristol Rovers", "Location": "Bristol", "Stadium": "Memorial Stadium", "Year_Open": 1921.0, "Capacity": 12300.0, "lon": -2.583134, "lat": 51.48622 }, "geometry": { "type": "Point", "coordinates": [ -2.583134, 51.48622 ] } },
{ "type": "Feature", "properties": { "FID": null, "OBJECTID": null, "Div_Num": null, "Division": "League One", "Team": "Burton Albion", "Location": "Burton upon Trent", "Stadium": "Pirelli Stadium", "Year_Open": 2005.0, "Capacity": 6912.0, "lon": -1.626958, "lat": 52.821906 }, "geometry": { "type": "Point", "coordinates": [ -1.626958, 52.821906 ] } },
{ "type": "Feature", "properties": { "FID": null, "OBJECTID": null, "Div_Num": null, "Division": "League One", "Team": "Charlton Athletic", "Location": "London (Charlton)", "Stadium": "The Valley", "Year_Open": 1919.0, "Capacity": 27111.0, "lon": 0.036389, "lat": 51.486389 }, "geometry": { "type": "Point", "coordinates": [ 0.036389, 51.486389 ] } },
{ "type": "Feature", "properties": { "FID": null, "OBJECTID": null, "Div_Num": null, "Division": "League One", "Team": "Coventry City", "Location": "Coventry", "Stadium": "Ricoh Arena", "Year_Open": 2005.0, "Capacity": 32609.0, "lon": -1.495556, "lat": 52.448056 }, "geometry": { "type": "Point", "coordinates": [ -1.495556, 52.448056 ] } },
{ "type": "Feature", "properties": { "FID": null, "OBJECTID": null, "Div_Num": null, "Division": "League One", "Team": "Doncaster Rovers", "Location": "Doncaster", "Stadium": "Keepmoat Stadium", "Year_Open": 2007.0, "Capacity": 15231.0, "lon": -1.113889, "lat": 53.509722 }, "geometry": { "type": "Point", "coordinates": [ -1.113889, 53.509722 ] } },
{ "type": "Feature", "properties": { "FID": null, "OBJECTID": null, "Div_Num": null, "Division": "League One", "Team": "Fleetwood Town", "Location": "Fleetwood", "Stadium": "Highbury Stadium", "Year_Open": 1939.0, "Capacity": 5311.0, "lon": -3.0247, "lat": 53.9165 }, "geometry": { "type": "Point", "coordinates": [ -3.0247, 53.9165 ] } },
{ "type": "Feature", "properties": { "FID": null, "OBJECTID": null, "Div_Num": null, "Division": "League One", "Team": "Gillingham", "Location": "Gillingham", "Stadium": "Priestfield Stadium", "Year_Open": 1893.0, "Capacity": 11582.0, "lon": 0.560753, "lat": 51.38425 }, "geometry": { "type": "Point", "coordinates": [ 0.560753, 51.38425 ] } },
{ "type": "Feature", "properties": { "FID": null, "OBJECTID": null, "Div_Num": null, "Division": "League One", "Team": "Luton Town", "Location": "Luton", "Stadium": "Kenilworth Road", "Year_Open": 1905.0, "Capacity": 10336.0, "lon": -0.431667, "lat": 51.884167 }, "geometry": { "type": "Point", "coordinates": [ -0.431667, 51.884167 ] } },
{ "type": "Feature", "properties": { "FID": null, "OBJECTID": null, "Div_Num": null, "Division": "League One", "Team": "Oxford United", "Location": "Oxford", "Stadium": "Kassam Stadium", "Year_Open": 2001.0, "Capacity": 12500.0, "lon": -1.207958, "lat": 51.716539 }, "geometry": { "type": "Point", "coordinates": [ -1.207958, 51.716539 ] } },
{ "type": "Feature", "properties": { "FID": null, "OBJECTID": null, "Div_Num": null, "Division": "League One", "Team": "Peterborough United", "Location": "Peterborough", "Stadium": "ABAX Stadium", "Year_Open": 1913.0, "Capacity": 14084.0, "lon": -0.240406, "lat": 52.564697 }, "geometry": { "type": "Point", "coordinates": [ -0.240406, 52.564697 ] } },
{ "type": "Feature", "properties": { "FID": null, "OBJECTID": null, "Div_Num": null, "Division": "League One", "Team": "Plymouth Argyle", "Location": "Plymouth", "Stadium": "Home Park", "Year_Open": 1893.0, "Capacity": 12500.0, "lon": -4.150833, "lat": 50.388056 }, "geometry": { "type": "Point", "coordinates": [ -4.150833, 50.388056 ] } },
{ "type": "Feature", "properties": { "FID": null, "OBJECTID": null, "Div_Num": null, "Division": "League One", "Team": "Portsmouth", "Location": "Portsmouth", "Stadium": "Fratton Park", "Year_Open": 1899.0, "Capacity": 21100.0, "lon": -1.063889, "lat": 50.796389 }, "geometry": { "type": "Point", "coordinates": [ -1.063889, 50.796389 ] } },
{ "type": "Feature", "properties": { "FID": null, "OBJECTID": null, "Div_Num": null, "Division": "League One", "Team": "Rochdale", "Location": "Rochdale", "Stadium": "Spotland Stadium", "Year_Open": 1878.0, "Capacity": 10500.0, "lon": -2.18, "lat": 53.620833 }, "geometry": { "type": "Point", "coordinates": [ -2.18, 53.620833 ] } },
{ "type": "Feature", "properties": { "FID": null, "OBJECTID": null, "Div_Num": null, "Division": "League One", "Team": "Scunthorpe United", "Location": "Scunthorpe", "Stadium": "Glanford Park", "Year_Open": 1988.0, "Capacity": 9088.0, "lon": -0.695267, "lat": 53.586725 }, "geometry": { "type": "Point", "coordinates": [ -0.695267, 53.586725 ] } },
{ "type": "Feature", "properties": { "FID": null, "OBJECTID": null, "Div_Num": null, "Division": "League One", "Team": "Shrewsbury Town", "Location": "Shrewsbury", "Stadium": "New Meadow", "Year_Open": 2007.0, "Capacity": 9875.0, "lon": -2.74933, "lat": 52.68863 }, "geometry": { "type": "Point", "coordinates": [ -2.74933, 52.68863 ] } },
{ "type": "Feature", "properties": { "FID": null, "OBJECTID": null, "Div_Num": null, "Division": "League One", "Team": "Southend United", "Location": "Southend-on-Sea", "Stadium": "Roots Hall", "Year_Open": 1955.0, "Capacity": 12392.0, "lon": 0.701558, "lat": 51.549017 }, "geometry": { "type": "Point", "coordinates": [ 0.701558, 51.549017 ] } },
{ "type": "Feature", "properties": { "FID": null, "OBJECTID": null, "Div_Num": null, "Division": "League One", "Team": "Sunderland", "Location": "Sunderland", "Stadium": "Stadium of Light", "Year_Open": 1997.0, "Capacity": 48707.0, "lon": -1.3882, "lat": 54.9144 }, "geometry": { "type": "Point", "coordinates": [ -1.3882, 54.9144 ] } },
{ "type": "Feature", "properties": { "FID": null, "OBJECTID": null, "Div_Num": null, "Division": "League One", "Team": "Walsall", "Location": "Walsall", "Stadium": "Bescot Stadium", "Year_Open": 1990.0, "Capacity": 11300.0, "lon": -1.9909, "lat": 52.5655 }, "geometry": { "type": "Point", "coordinates": [ -1.9909, 52.5655 ] } },
{ "type": "Feature", "properties": { "FID": null, "OBJECTID": null, "Div_Num": null, "Division": "League One", "Team": "Wycombe Wanderers", "Location": "High Wycombe", "Stadium": "Adams Park", "Year_Open": 1990.0, "Capacity": 10137.0, "lon": -0.800278, "lat": 51.630556 }, "geometry": { "type": "Point", "coordinates": [ -0.800278, 51.630556 ] } },
{ "type": "Feature", "properties": { "FID": null, "OBJECTID": null, "Div_Num": null, "Division": "League Two", "Team": "Bury", "Location": "Bury", "Stadium": "Gigg Lane", "Year_Open": 1885.0, "Capacity": 11840.0, "lon": -2.294822, "lat": 53.580506 }, "geometry": { "type": "Point", "coordinates": [ -2.294822, 53.580506 ] } },
{ "type": "Feature", "properties": { "FID": null, "OBJECTID": null, "Div_Num": null, "Division": "League Two", "Team": "Cambridge United", "Location": "Cambridge", "Stadium": "Abbey Stadium", "Year_Open": 1932.0, "Capacity": 8127.0, "lon": 0.15415, "lat": 52.2121 }, "geometry": { "type": "Point", "coordinates": [ 0.15415, 52.2121 ] } },
{ "type": "Feature", "properties": { "FID": null, "OBJECTID": null, "Div_Num": null, "Division": "League Two", "Team": "Carlisle United", "Location": "Carlisle", "Stadium": "Brunton Park", "Year_Open": 1909.0, "Capacity": 17949.0, "lon": -2.91365, "lat": 54.89556 }, "geometry": { "type": "Point", "coordinates": [ -2.91365, 54.89556 ] } },
{ "type": "Feature", "properties": { "FID": null, "OBJECTID": null, "Div_Num": null, "Division": "League Two", "Team": "Cheltenham Town", "Location": "Cheltenham", "Stadium": "Whaddon Road", "Year_Open": 1927.0, "Capacity": 7066.0, "lon": -2.060211, "lat": 51.906158 }, "geometry": { "type": "Point", "coordinates": [ -2.060211, 51.906158 ] } },
{ "type": "Feature", "properties": { "FID": null, "OBJECTID": null, "Div_Num": null, "Division": "League Two", "Team": "Colchester United", "Location": "Colchester", "Stadium": "Colchester Community Stadium", "Year_Open": 2008.0, "Capacity": 10105.0, "lon": 0.897703, "lat": 51.923394 }, "geometry": { "type": "Point", "coordinates": [ 0.897703, 51.923394 ] } },
{ "type": "Feature", "properties": { "FID": null, "OBJECTID": null, "Div_Num": null, "Division": "League Two", "Team": "Crawley Town", "Location": "Crawley", "Stadium": "Broadfield Stadium", "Year_Open": 1997.0, "Capacity": 5996.0, "lon": -0.194767, "lat": 51.099706 }, "geometry": { "type": "Point", "coordinates": [ -0.194767, 51.099706 ] } },
{ "type": "Feature", "properties": { "FID": null, "OBJECTID": null, "Div_Num": null, "Division": "League Two", "Team": "Crewe Alexandra", "Location": "Crewe", "Stadium": "Gresty Road", "Year_Open": 1906.0, "Capacity": 10180.0, "lon": -2.435747, "lat": 53.087419 }, "geometry": { "type": "Point", "coordinates": [ -2.435747, 53.087419 ] } },
{ "type": "Feature", "properties": { "FID": null, "OBJECTID": null, "Div_Num": null, "Division": "League Two", "Team": "Exeter City", "Location": "Exeter", "Stadium": "St James Park (Exeter)", "Year_Open": 1904.0, "Capacity": 8830.0, "lon": -3.52115, "lat": 50.730714 }, "geometry": { "type": "Point", "coordinates": [ -3.52115, 50.730714 ] } },
{ "type": "Feature", "properties": { "FID": null, "OBJECTID": null, "Div_Num": null, "Division": "League Two", "Team": "Forest Green Rovers", "Location": "Nailsworth", "Stadium": "The New Lawn", "Year_Open": 2006.0, "Capacity": 5147.0, "lon": -2.237892, "lat": 51.698975 }, "geometry": { "type": "Point", "coordinates": [ -2.237892, 51.698975 ] } },
{ "type": "Feature", "properties": { "FID": null, "OBJECTID": null, "Div_Num": null, "Division": "League Two", "Team": "Grimsby Town", "Location": "Cleethorpes", "Stadium": "Blundell Park", "Year_Open": 1899.0, "Capacity": 9052.0, "lon": -0.046497, "lat": 53.570225 }, "geometry": { "type": "Point", "coordinates": [ -0.046497, 53.570225 ] } },
{ "type": "Feature", "properties": { "FID": null, "OBJECTID": null, "Div_Num": null, "Division": "League Two", "Team": "Lincoln City", "Location": "Lincoln", "Stadium": "Sincil Bank", "Year_Open": 1895.0, "Capacity": 10120.0, "lon": -0.540811, "lat": 53.218289 }, "geometry": { "type": "Point", "coordinates": [ -0.540811, 53.218289 ] } },
{ "type": "Feature", "properties": { "FID": null, "OBJECTID": null, "Div_Num": null, "Division": "League Two", "Team": "Macclesfield Town", "Location": "Macclesfield", "Stadium": "Moss Rose", "Year_Open": 1891.0, "Capacity": 6355.0, "lon": -2.127136, "lat": 53.242781 }, "geometry": { "type": "Point", "coordinates": [ -2.127136, 53.242781 ] } },
{ "type": "Feature", "properties": { "FID": null, "OBJECTID": null, "Div_Num": null, "Division": "League Two", "Team": "Mansfield Town", "Location": "Mansfield", "Stadium": "Field Mill", "Year_Open": 1861.0, "Capacity": 10000.0, "lon": -1.200556, "lat": 53.138056 }, "geometry": { "type": "Point", "coordinates": [ -1.200556, 53.138056 ] } },
{ "type": "Feature", "properties": { "FID": null, "OBJECTID": null, "Div_Num": null, "Division": "League Two", "Team": "Milton Keynes Dons", "Location": "Milton Keynes", "Stadium": "Stadium MK", "Year_Open": 2007.0, "Capacity": 30500.0, "lon": -0.733333, "lat": 52.009444 }, "geometry": { "type": "Point", "coordinates": [ -0.733333, 52.009444 ] } },
{ "type": "Feature", "properties": { "FID": null, "OBJECTID": null, "Div_Num": null, "Division": "League Two", "Team": "Morecambe", "Location": "Morecambe", "Stadium": "Globe Arena", "Year_Open": 2010.0, "Capacity": 6476.0, "lon": -2.8672, "lat": 54.0615 }, "geometry": { "type": "Point", "coordinates": [ -2.8672, 54.0615 ] } },
{ "type": "Feature", "properties": { "FID": null, "OBJECTID": null, "Div_Num": null, "Division": "League Two", "Team": "Newport County", "Location": "Newport", "Stadium": "Rodney Parade", "Year_Open": 1877.0, "Capacity": 7850.0, "lon": -2.987778, "lat": 51.588333 }, "geometry": { "type": "Point", "coordinates": [ -2.987778, 51.588333 ] } },
{ "type": "Feature", "properties": { "FID": null, "OBJECTID": null, "Div_Num": null, "Division": "League Two", "Team": "Northampton Town", "Location": "Northampton", "Stadium": "Sixfields Stadium", "Year_Open": 1994.0, "Capacity": 7653.0, "lon": -0.93345, "lat": 52.235197 }, "geometry": { "type": "Point", "coordinates": [ -0.93345, 52.235197 ] } },
{ "type": "Feature", "properties": { "FID": null, "OBJECTID": null, "Div_Num": null, "Division": "League Two", "Team": "Notts County", "Location": "Nottingham", "Stadium": "Meadow Lane", "Year_Open": 1910.0, "Capacity": 19588.0, "lon": -1.137222, "lat": 52.9425 }, "geometry": { "type": "Point", "coordinates": [ -1.137222, 52.9425 ] } },
{ "type": "Feature", "properties": { "FID": null, "OBJECTID": null, "Div_Num": null, "Division": "League Two", "Team": "Oldham Athletic", "Location": "Oldham", "Stadium": "Boundary Park", "Year_Open": 1904.0, "Capacity": 13512.0, "lon": -2.128611, "lat": 53.555278 }, "geometry": { "type": "Point", "coordinates": [ -2.128611, 53.555278 ] } },
{ "type": "Feature", "properties": { "FID": null, "OBJECTID": null, "Div_Num": null, "Division": "League Two", "Team": "Port Vale", "Location": "Burslem", "Stadium": "Vale Park", "Year_Open": 1950.0, "Capacity": 19052.0, "lon": -2.192644, "lat": 53.050064 }, "geometry": { "type": "Point", "coordinates": [ -2.192644, 53.050064 ] } },
{ "type": "Feature", "properties": { "FID": null, "OBJECTID": null, "Div_Num": null, "Division": "League Two", "Team": "Stevenage", "Location": "Stevenage", "Stadium": "Broadhall Way", "Year_Open": 1961.0, "Capacity": 6722.0, "lon": -0.193608, "lat": 51.889839 }, "geometry": { "type": "Point", "coordinates": [ -0.193608, 51.889839 ] } },
{ "type": "Feature", "properties": { "FID": null, "OBJECTID": null, "Div_Num": null, "Division": "League Two", "Team": "Swindon Town", "Location": "Swindon", "Stadium": "County Ground (Swindon)", "Year_Open": 1896.0, "Capacity": 15728.0, "lon": -1.770556, "lat": 51.564444 }, "geometry": { "type": "Point", "coordinates": [ -1.770556, 51.564444 ] } },
{ "type": "Feature", "properties": { "FID": null, "OBJECTID": null, "Div_Num": null, "Division": "League Two", "Team": "Tranmere Rovers", "Location": "Birkenhead", "Stadium": "Prenton Park", "Year_Open": 1912.0, "Capacity": 16789.0, "lon": -3.0325, "lat": 53.373611 }, "geometry": { "type": "Point", "coordinates": [ -3.0325, 53.373611 ] } },
{ "type": "Feature", "properties": { "FID": null, "OBJECTID": null, "Div_Num": null, "Division": "League Two", "Team": "Yeovil Town", "Location": "Yeovil", "Stadium": "Huish Park", "Year_Open": 1990.0, "Capacity": 9566.0, "lon": -2.673844, "lat": 50.950261 }, "geometry": { "type": "Point", "coordinates": [ -2.673844, 50.950261 ] } }
]
}
